{"type":"FeatureCollection", "features": [
{"type":"Feature","geometry":{"type":"Point","coordinates":[-58.5105914,-34.5777909,0]},"properties":{"name":"Club Cultural y Deportivo 17 de Agosto","styleUrl":"#icon-1899-0288D1-nodesc","icon-scale":1,"icon-offset":[32,64],"icon-offset-units":["pixels","insetPixels"],"icon":"images/icon-1.png"}},
{"type":"Feature","geometry":{"type":"Point","coordinates":[-58.5051571,-34.6039263,0]},"properties":{"name":"Club Kimberley","styleUrl":"#icon-1899-0288D1-nodesc","icon-scale":1,"icon-offset":[32,64],"icon-offset-units":["pixels","insetPixels"],"icon":"images/icon-1.png"}},
{"type":"Feature","geometry":{"type":"Point","coordinates":[-58.4731443,-34.6441473,0]},"properties":{"name":"Club Social y Deportivo América del Sud","styleUrl":"#icon-1899-0288D1-nodesc","icon-scale":1,"icon-offset":[32,64],"icon-offset-units":["pixels","insetPixels"],"icon":"images/icon-1.png"}},
{"type":"Feature","geometry":{"type":"Point","coordinates":[-58.5245737,-34.6222552,0]},"properties":{"name":"Club Jorge Newbery","styleUrl":"#icon-1899-0288D1-nodesc","icon-scale":1,"icon-offset":[32,64],"icon-offset-units":["pixels","insetPixels"],"icon":"images/icon-1.png"}},
{"type":"Feature","geometry":{"type":"Point","coordinates":[-58.4916825,-34.5646546,0]},"properties":{"name":"Club Social y Deportivo Pinocho","styleUrl":"#icon-1899-0288D1-nodesc","icon-scale":1,"icon-offset":[32,64],"icon-offset-units":["pixels","insetPixels"],"icon":"images/icon-1.png"}},
{"type":"Feature","geometry":{"type":"Point","coordinates":[-58.4462119,-34.6195047,0]},"properties":{"name":"Club Ferro Carril Oeste","styleUrl":"#icon-1899-0288D1-nodesc","icon-scale":1,"icon-offset":[32,64],"icon-offset-units":["pixels","insetPixels"],"icon":"images/icon-1.png"}},
{"type":"Feature","geometry":{"type":"Point","coordinates":[-58.3703633,-34.6689379,0]},"properties":{"name":"Centro Deportivo Racing Club","styleUrl":"#icon-1899-0288D1-nodesc","icon-scale":1,"icon-offset":[32,64],"icon-offset-units":["pixels","insetPixels"],"icon":"images/icon-1.png"}},
{"type":"Feature","geometry":{"type":"Point","coordinates":[-58.4223166,-34.6349435,0]},"properties":{"name":"Polideportivo Arquitecto Roberto Pando","styleUrl":"#icon-1899-0288D1-nodesc","icon-scale":1,"icon-offset":[32,64],"icon-offset-units":["pixels","insetPixels"],"icon":"images/icon-1.png"}},
{"type":"Feature","geometry":{"type":"Point","coordinates":[-58.3589505,-34.6658107,0]},"properties":{"name":"Club Secla","styleUrl":"#icon-1899-0288D1-nodesc","icon-scale":1,"icon-offset":[32,64],"icon-offset-units":["pixels","insetPixels"],"icon":"images/icon-1.png"}},
{"type":"Feature","geometry":{"type":"Point","coordinates":[-58.8830428,-34.4525902,0]},"properties":{"name":"Hebraica Sede Pilar","styleUrl":"#icon-1899-0288D1-nodesc","icon-scale":1,"icon-offset":[32,64],"icon-offset-units":["pixels","insetPixels"],"icon":"images/icon-1.png"}},
{"type":"Feature","geometry":{"type":"Point","coordinates":[-58.4817994,-34.6426726,0]},"properties":{"name":"Alvear Club","styleUrl":"#icon-1899-0288D1-nodesc","icon-scale":1,"icon-offset":[32,64],"icon-offset-units":["pixels","insetPixels"],"icon":"images/icon-1.png"}},
{"type":"Feature","geometry":{"type":"Point","coordinates":[-58.3655086,-34.631125,0]},"properties":{"name":"Polideportivo Benito Quinquela Martín","styleUrl":"#icon-1899-0288D1-nodesc","icon-scale":1,"icon-offset":[32,64],"icon-offset-units":["pixels","insetPixels"],"icon":"images/icon-1.png"}},
{"type":"Feature","geometry":{"type":"Point","coordinates":[-58.3779352,-34.6816498,0]},"properties":{"name":"Villa Modelo","styleUrl":"#icon-1899-0288D1-nodesc","icon-scale":1,"icon-offset":[32,64],"icon-offset-units":["pixels","insetPixels"],"icon":"images/icon-1.png"}},
{"type":"Feature","geometry":{"type":"Point","coordinates":[-58.7767307,-34.4692474,0]},"properties":{"name":"Estadio del Club Deportivo Metalurgíco","styleUrl":"#icon-1899-0288D1-nodesc","icon-scale":1,"icon-offset":[32,64],"icon-offset-units":["pixels","insetPixels"],"icon":"images/icon-1.png"}},
{"type":"Feature","geometry":{"type":"Point","coordinates":[-58.4817994,-34.6426726,0]},"properties":{"name":"Alvear Club","styleUrl":"#icon-1899-0288D1-nodesc","icon-scale":1,"icon-offset":[32,64],"icon-offset-units":["pixels","insetPixels"],"icon":"images/icon-1.png"}}
]}